name,lat,lon,投票区名
001-1学校給食センター（元横山）北側,35.6659988888889,139.338137777778,第一
001-2第一小学校東側コンクリート塀,35.6611877777778,139.336985277778,第一
001-3椎名内科向かい側植込,35.6625311111111,139.333441388889,第一
001-4元横西公園北側,35.6662894444444,139.332906111111,第一
001-5第一小学校南側コンクリート塀,35.6607113888889,139.33645,第一
001-6妙薬寺北側ブロック塀,35.66339,139.335225833333,第一
001-7第一小学校西側フェンス,35.6614238888889,139.335961111111,第一
001-8元横一丁目公園フェンス,35.6641916666667,139.341185833333,第一
002-1第二小学校南側フェンス,35.6615508333333,139.322287777778,第二
002-2八木町公園東側植込,35.6616586111111,139.321228888889,第二
002-3藤和シティホームズ西八王子西側,35.6604672222222,139.317404166667,第二
002-4善能寺北側塀,35.6629102777778,139.322550555556,第二
002-5エコス大横店南側フェンス,35.6611180555556,139.329178888889,第二
002-6第二小学校北側フェンス東側,35.6619080555556,139.322956666667,第二
003-1いちょう公園南大通り側,35.6549705555556,139.330952777778,第三
003-2子安公園西側,35.6528244444444,139.3348925,第三
003-3念仏院西側大谷石塀,35.6564338888889,139.328100277778,第三
003-4天神公園北側フェンス,35.6574055555556,139.329475277778,第三
003-5西放射線中町公園（風車の広場）北側,35.6589461111111,139.335409166667,第三
003-6子安濱村こかげ公園南側,35.6535394444444,139.336513055556,第三
003-7第三小学校北側フェンス,35.6557597222222,139.332015833333,第三
003-8子安公園南側,35.6521602777778,139.335058333333,第三
004-1竹の花公園北側,35.6624855555556,139.341806388889,第四
004-2クリエイトホール北側植込,35.6586811111111,139.340031666667,第四
004-3第四小学校西側フェンス,35.6574944444444,139.345245277778,第四
004-4第四小学校南側フェンス,35.6569305555556,139.345838888889,第四
004-5北田南公園北側,35.6603141666667,139.347457222222,第四
004-6明神町なかよし公園北西フェンス,35.6568236111111,139.347141666667,第四
004-7第五中学校北側植込,35.6618202777778,139.343792222222,第四
004-8都立南多摩中等教育学校南側植込,35.6596308333333,139.343188333333,第四
005-1せきれい児童遊園フェンス前植込,35.6603752777778,139.306321388889,第五
005-2千人町桑の実児童公園西側先,35.6575988888889,139.309893055556,第五
005-3千人保育園東側フェンス,35.6589036111111,139.310206666667,第五
005-4第五小学校東側入口脇フェンス,35.6596369444444,139.308967222222,第五
005-5第五小学校西側入口脇フェンス,35.6584091666667,139.307908888889,第五
005-6都立八王子桑志高等学校敷地西側市道フェンス,35.6569658333333,139.304279166667,第五
005-7西八王子駅北口自転車駐車場南側ブロック,35.656535,139.312123333333,第五
005-8千人町どんぐり広場北側,35.65794,139.306358611111,第五
006-1清流寺東側空地,35.6523688888889,139.344102777778,第六
006-2子安東公園南側植込,35.6511627777778,139.340354722222,第六
006-3いずみの森義務教育学校北側フェンス,35.6503266666667,139.341165,第六
006-4八王子ハローワーク西側フェンス,35.6538413888889,139.340893333333,第六
006-5由井中学校西側フェンス,35.6444983333333,139.339329444444,第六
006-6子安六万坊公園北側フェンス,35.650640830030206,139.3467872648914,第六
006-7六本杉公園北側フェンス,35.6492394444444,139.340728055556,第六
006-8子安市民センター西側,35.650905,139.344431666667,第六
006-9六本杉公園南側フェンス,35.6486247222222,139.341456666667,第六
007-1バス停「南大通り」南側空地,35.6554913888889,139.326069444444,第七
007-2金剛院南側ブロック塀,35.65655,139.327170555556,第七
007-3千人町分教会南側コンクリート塀,35.6565038888889,139.316330555556,第七
007-4台町見晴公園南側,35.6545675,139.323546944444,第七
007-5八王子拓真高等学校西側植込,35.6546047222222,139.316376388889,第七
007-6第七小学校北側フェンス,35.6572063888889,139.323310277778,第七
007-7第七小学校東側フェンス,35.6565066666667,139.324294722222,第七
007-8小児・障害メディカルセンター　東側フェンス,35.657545,139.318674166667,第七
008-1（株）サンエス西側ブロック塀,35.6743222222222,139.3161525,第八
008-2中野保育園南側フェンス,35.6665827777778,139.324700833333,第八
008-3第九小学校南側フェンス,35.6702797222222,139.3246675,第八
008-4第九小学校西側フェンス,35.6708922222222,139.323701666667,第八
008-5第二中学校西側フェンス,35.6701591666667,139.314396111111,第八
008-6日本機械工業（株）八王子工場北西側フェンス,35.6713125,139.317543055556,第八
008-7八王子市補修センター北側ブロック塀,35.6695463888889,139.320083888889,第八
009-1東三まちの広場フェンス,35.6693780555556,139.334135277778,第九
009-2第十小学校北側フェンス,35.6662044444444,139.344215833333,第九
009-3第十小学校南東側フェンス,35.6650561111111,139.343917777778,第九
009-4西花田原公園東側（入口沿い）,35.668735,139.346181666667,第九
009-5大和田七丁目アパート１号棟前駐車場フェンス,35.6675016666667,139.343951388889,第九
009-6八王子郵便局北側,35.6670966666667,139.340786111111,第九
009-7富士見町緑地,35.6682222222222,139.350956111111,第九
009-8大和田市民センター東側植込,35.6630644444444,139.352109722222,第九
009-9ひよどり山中学校南門横フェンス,35.6753975,139.338874722222,第九
010-1ひよどり公園北側フェンス,35.6743502777778,139.333632777778,第十
010-2中田遺跡公園南側,35.6737580555556,139.32386,第十
010-3清水小学校東側,35.6759216666667,139.320540833333,第十
010-4信用土地（株）西側コンクリート塀,35.6712458333333,139.328332777778,第十
010-5中野北小学校北側フェンス,35.6746936111111,139.326591388889,第十
010-6中野北小学校南側フェンス,35.6736530555556,139.327289722222,第十
010-7中田遺跡公園北側,35.6745475,139.324050555556,第十
011-1北の原公園北側,35.6676505555556,139.355100277778,第十一
011-2大和田小学校北側フェンス,35.6660663888889,139.354383333333,第十一
011-3大和田小学校南東側フェンス,35.6648741666667,139.355143333333,第十一
011-4大和台公園北側フェンス,35.6681936111111,139.356368333333,第十一
011-5石川道公園南側,35.6683808333333,139.352630555556,第十一
011-6南原公園東南,35.6624183333333,139.358142777778,第十一
011-7大和田公園西側,35.6648433333333,139.359080833333,第十一
012-1富士森公園こども広場北側,35.6530855555556,139.323298055556,第十二
012-2富士森公園東側,35.6512166666667,139.3253125,第十二
012-3野球場西側植込,35.6521194444444,139.320950833333,第十二
012-4八王子市教育センター正門横フェンス,35.6494686111111,139.319868055556,第十二
012-5第七中学校南面フェンス,35.6502502777778,139.316438055556,第十二
012-6朝日ヶ丘富士見公園,35.6479147222222,139.313681944444,第十二
012-7散田南公園北側フェンス,35.6480919444444,139.310596666667,第十二
013-1谷野北公園北側,35.6847827777778,139.321259722222,第十三
013-2左入公園南側,35.6796711111111,139.328651944444,第十三
013-3谷野東公園,35.6816822222222,139.330111111111,第十三
013-4谷野南公園東側,35.6817063888889,139.325403611111,第十三
013-5中野市民センター北側植込,35.6817963888889,139.31879,第十三
013-6工学院大学南側フェンス,35.6826780555556,139.317608611111,第十三
013-7甲の原体育館東側植込,35.6808833333333,139.318771388889,第十三
013-8甲の原北公園北側,35.6816780555556,139.320807777778,第十三
014-1元本郷公園西側,35.6640113888889,139.312590277778,第十四
014-2商工会議所駐車場北フェンス,35.6643577777778,139.328798333333,第十四
014-3東平岡公園北側,35.6645722222222,139.3263175,第十四
014-4市営住宅元本郷団地４号棟北側,35.6645827777778,139.319655833333,第十四
014-5コンビニ向かい側民家塀,35.6641905555556,139.31446,第十四
014-6市営住宅元本郷団地１号棟北側駐車場前,35.6648388888889,139.317004166667,第十四
014-7八王子市役所来庁者駐車場東側,35.6665713888889,139.315068888889,第十四
015-1緑町霊園北側フェンス,35.64955,139.324430277778,第十五
015-2第六中学校東側フェンス,35.6529791666667,139.330733888889,第十五
015-3第六中学校西側フェンス,35.6529355555556,139.329254166667,第十五
015-4上野町公園西側フェンス,35.6535047222222,139.327793055556,第十五
015-5八王子実践高校北側フェンス,35.6522511111111,139.329860277778,第十五
015-6八王子実践高校体育館南側フェンス,35.6501233333333,139.327909722222,第十五
015-7緑町もみじ公園東側植込,35.6474958333333,139.329097222222,第十五
030-1都立陵南公園西側植込,35.648175,139.292253611111,浅川第一
030-2長泉寺東側市道フェンス,35.6530066666667,139.289445555556,浅川第一
030-3長房町消防団機具置場フェンス,35.6517013888889,139.286003888889,浅川第一
030-4原宿町会館前フェンス,35.646355,139.288925277778,浅川第一
030-5都立陵南公園北側フェンス,35.6498952777778,139.289543611111,浅川第一
030-6原宿町会内三角地花壇歩道側,35.6470061111111,139.290890833333,浅川第一
030-7都立陵南公園北側,35.6488280555556,139.292416388889,浅川第一
031-1旧浅川支所東側フェンス,35.6427380555556,139.275021388889,浅川第二
031-2高尾駅北口臨時駐輪場フェンス,35.6423280555556,139.280186111111,浅川第二
031-3西浅川児童遊園,35.6397980555556,139.272083888889,浅川第二
031-4浅川事務所西側フェンス,35.6430961111111,139.276783888889,浅川第二
031-5御嶽神社横,35.643615,139.280026388889,浅川第二
031-6廿里町公会堂向かい,35.6455016666667,139.282296388889,浅川第二
032-1消防団第１１分団第１１部器具置場東側畑,35.6287747222222,139.268858333333,浅川第三
032-2高尾山口駅北交差点,35.6342633333333,139.270633333333,浅川第三
032-3東京都水道局南浅川配水所,35.6197694444444,139.262303333333,浅川第三
032-4高尾山口駅横公園脇遊歩道フェンス（トイレ手前）,35.6317794444444,139.269664722222,浅川第三
033-1裏高尾増圧ポンプ所付近,35.6395647222222,139.247780833333,浅川第四
033-2高尾梅の郷まちの広場,35.6387213888889,139.255920277778,浅川第四
033-3駒木野病院北側万年塀,35.6409619444444,139.268713888889,浅川第四
034-1高尾駅南口バス停中央植込,35.6418030555556,139.283795277778,浅川第五
034-2浅川小学校東側フェンス,35.6402930555556,139.282635555556,浅川第五
034-3初沢橋横,35.6404980555556,139.28051,浅川第五
034-4紅葉台中公園西側,35.6325208333333,139.279380833333,浅川第五
034-5狭間公園南側,35.6404827777778,139.290575,浅川第五
034-6八王子狭間住宅南側児童公園フェンス,35.6376166666667,139.288261666667,浅川第五
034-7猿額公園,35.6350738888889,139.285317777778,浅川第五
034-8三和団地自治会案内図付近,35.6386144444444,139.275756666667,浅川第五
035-1東浅川小学校南側フェンス,35.6417875,139.286910555556,浅川第六
035-2東浅川公園西側フェンス,35.6465936111111,139.29507,浅川第六
035-3東浅川公園東側フェンス,35.6473911111111,139.296234166667,浅川第六
035-4東浅川小学校西側フェンス,35.6423155555556,139.286209166667,浅川第六
035-5陵南中学校南側フェンス,35.6447891666667,139.294456388889,浅川第六
035-6（有）協和製作所付近,35.6442688888889,139.299212222222,浅川第六
035-7狭間公園西側,35.6408461111111,139.289665277778,浅川第六
035-8陵南中学校西側フェンス,35.6457044444444,139.292405,浅川第六
040-1越野下根公園敷地内,35.6290694444444,139.390481944444,由木第一
040-2越野吹上公園,35.6292055555556,139.386430833333,由木第一
040-3由木中央市民センター前道路沿い,35.6270597222222,139.382354722222,由木第一
040-4旧由木事務所跡地野猿街道沿いフェンス,35.6282741666667,139.382775,由木第一
040-5バス停「殿ヶ谷戸」前畑,35.6299122222222,139.377644166667,由木第一
040-6NTT由木電話交換局フェンス,35.6287822222222,139.38781,由木第一
040-7下柚木小学校北側土手,35.6222633333333,139.379614166667,由木第一
040-8大片瀬公園敷地内,35.6248747222222,139.380261388889,由木第一
040-9越野北八幡公園南側敷地内,35.6303983333333,139.393310833333,由木第一
041-1由木西小学校西側フェンス,35.6232127777778,139.3608825,由木第二
041-2（有）松原工業ストックヤード東側空地,35.6245869444444,139.369704444444,由木第二
041-3中山会館前,35.6276761111111,139.363013888889,由木第二
041-4バス停「上柚木」前フェンス,35.6221338888889,139.370824166667,由木第二
041-5上柚木駐在所南側道路フェンス,35.6209008333333,139.3654625,由木第二
041-6日影橋北西側,35.6198727777778,139.365080833333,由木第二
041-7中山小学校南側フェンス,35.6251119444444,139.357836388889,由木第二
042-1海公園西側,35.6334063888889,139.373541111111,由木第三
042-2都立長沼公園平山口階段下,35.6365077777778,139.374166944444,由木第三
042-3北楽公園敷地内西寄り,35.6355727777778,139.374952777778,由木第三
042-4竹の子公園敷地内,35.6319183333333,139.377281666667,由木第三
042-5バス停「南陽台中央」北側空地,35.6343422222222,139.377121388889,由木第三
050-1信号「八王子堀之内東」東側梅林フェンス,35.6311780555556,139.404070555556,由木東第一
050-2堀之内洗馬川公園東側道路沿い,35.6308986111111,139.406202222222,由木東第一
050-3堀之内引切公園北側フェンス,35.6299444444444,139.403268055556,由木東第一
050-4松原公園南側フェンス,35.6417888888889,139.411731111111,由木東第一
050-5（株）加藤ガス東側空地,35.6356813888889,139.411553611111,由木東第一
050-6東中野かじざか公園入口左側植込,35.6432741666667,139.411803611111,由木東第一
050-7由木東小学校北側フェンス,35.6337697222222,139.40794,由木東第一
050-8由木東小学校東側フェンス,35.6329666666667,139.408860555556,由木東第一
050-9天野谷戸公園北側道路沿い,35.6395136111111,139.412772222222,由木東第一
051-1バス停「大塚公園」前道路沿い,35.6327625,139.417331388889,由木東第二
051-2大塚西公園東側植え込み,35.6282861111111,139.418865277778,由木東第二
051-3望地公園南側,35.6321772222222,139.420333888889,由木東第二
051-4バス停「松が谷小学校」前道路沿い,35.6293736111111,139.413430833333,由木東第二
051-5バス停「松が谷」前道路沿い,35.6273763888889,139.414424722222,由木東第二
051-6大塚橋西側フェンス,35.6337577777778,139.420304166667,由木東第二
051-7乳母ケ谷公園西側道路沿い,35.6285813888889,139.411511388889,由木東第二
052-1都営鹿島１６番地団地南側道路沿い,35.6348288888889,139.426685555556,由木東第三
052-2鹿島小学校南側校門横フェンス（プール側）,35.6331616666667,139.425935,由木東第三
052-3バス停「鹿島」前道路沿い,35.6340544444444,139.424178333333,由木東第三
052-4梶川緑地西側道路沿い,35.6345316666667,139.420312222222,由木東第三
052-5大塚東公園西側バス停「山根入」,35.6308186111111,139.4229675,由木東第三
052-6大塚なかおね公園西側フェンス,35.6434097222222,139.413485555556,由木東第三
052-7由木ケ丘公園北側フェンス左寄り,35.6390661111111,139.414406388889,由木東第三
052-8大塚宮田公園西側道路沿い,35.6363061111111,139.4194275,由木東第三
060-1秋葉台小学校西側,35.6244936111111,139.404829722222,南大沢第一
060-2VIA長池立体駐車場南側,35.6239091666667,139.401901666667,南大沢第一
060-3別所中学校入口脇,35.6198180555556,139.40024,南大沢第一
060-4別所公園東側入口脇,35.6177594444444,139.399492777778,南大沢第一
060-5別所小学校西側,35.61345,139.394967777778,南大沢第一
060-6別所小学校北側,35.6149727777778,139.395616944444,南大沢第一
060-7別所公園南,35.6153497222222,139.399624722222,南大沢第一
060-8別所ふれあい公園東側,35.6231222222222,139.398779166667,南大沢第一
061-1松木中学校南側フェンス,35.6177144444444,139.392144166667,南大沢第二
061-2大石やかた公園,35.6276786111111,139.387680833333,南大沢第二
061-3松木えのき公園,35.6211852777778,139.388997222222,南大沢第二
061-4松木小学校正門脇,35.6224263888889,139.394497222222,南大沢第二
061-5松木峰ヶ谷戸公園,35.62428,139.396256944444,南大沢第二
061-6蓮生寺公園北西側,35.6205627777778,139.394377222222,南大沢第二
061-7多摩ニュータウン蓮生寺団地集会所東側,35.6213547222222,139.396764444444,南大沢第二
061-8富士見台公園第２駐車場東,35.6247152777778,139.386316666667,南大沢第二
062-1南大沢中郷公園入口西側,35.6127180555556,139.380095,南大沢第三
062-2柏木小学校西側フェンス,35.6097408333333,139.382375,南大沢第三
062-3バス停「南大沢団地」前,35.6056041666667,139.381156111111,南大沢第三
062-4トミンハイム南大沢東北側,35.6041405555556,139.382973888889,南大沢第三
062-5東光寺橋フェンス南端,35.6130077777778,139.3779075,南大沢第三
062-6南大沢駅北口歩行者通路上フェンス,35.6147636111111,139.379184166667,南大沢第三
062-7南大沢長谷戸公園前,35.6063475,139.385425555556,南大沢第三
062-8南大沢日向公園東側,35.6177577777778,139.383951944444,南大沢第三
063-1バス停「だいり橋」向い側土手,35.6159166666667,139.375743611111,南大沢第四
063-2宮上中学校東側入口道路沿い,35.6131975,139.374510833333,南大沢第四
063-3公団南大沢学園２番街西南角,35.6154508333333,139.3730625,南大沢第四
063-4バス停「三徳プラザ前」前道路先,35.6131461111111,139.369663055556,南大沢第四
063-5宮上小学校正門西側,35.61098,139.370912222222,南大沢第四
063-6上柚木小学校西側土手,35.6154455555556,139.36795,南大沢第四
063-7上柚木公園健康広場南側,35.6191163888889,139.371735833333,南大沢第四
063-8上柚木公園内野球場前児童遊園植込,35.6175297222222,139.366771944444,南大沢第四
064-1板木会館東側,35.6135619444444,139.35863,南大沢第五
064-2パークフィーネ南大沢一番館前,35.6104344444444,139.366941388889,南大沢第五
064-3絹の道一番街北側,35.6130725,139.366781666667,南大沢第五
064-4宮上駐在所西側植込前壁面,35.61288,139.368245833333,南大沢第五
064-5鑓水中学校東,35.6130791666667,139.360649166667,南大沢第五
064-6鑓水小学校北西側,35.6139027777778,139.363355277778,南大沢第五
064-7鑓水公園西側入口脇,35.6108469444444,139.3599775,南大沢第五
065-1信号「由木西小入口」前,35.6156816666667,139.361965555556,南大沢第六
065-2鑓水公会堂前,35.6173091666667,139.354625833333,南大沢第六
065-3鑓水まちの広場南側フェンス前,35.6163788888889,139.355238055556,南大沢第六
065-4多摩美術大学入口東側,35.6132513888889,139.3506025,南大沢第六
065-5信号「多摩美大西」東方先,35.6135177777778,139.348273333333,南大沢第六
065-6バス停「鑓水入口」東方,35.6138713888889,139.343717777778,南大沢第六
066-1バス停「九反甫公園」前,35.6060788888889,139.377158611111,南大沢第七
066-2南大沢小学校正門脇,35.6074325,139.37455,南大沢第七
066-3都立小山内裏公園東,35.6058894444444,139.375189722222,南大沢第七
066-4多摩ニュータウン南大沢団地４号棟東側,35.608945,139.376964722222,南大沢第七
066-5四季の丘南緑地西側,35.60419,139.373457777778,南大沢第七
066-6公団シティハイツ南大沢西側,35.6106933333333,139.377379722222,南大沢第七
066-7南大沢小学校北側校門脇,35.609145,139.374897222222,南大沢第七
067-1長池小学校西側道路沿い,35.6098927777778,139.3879025,南大沢第八
067-2松木公園西側駐車場前植込,35.611995,139.389434444444,南大沢第八
067-3松木公園東側植込,35.6122644444444,139.391270833333,南大沢第八
067-4公団ビューコート別所3号棟集会所前,35.6154172222222,139.390003611111,南大沢第八
067-5多摩ニュータウン別所一丁目第２団地1号棟駐車場裏植込,35.6085033333333,139.388114722222,南大沢第八
067-6別所やまざくら公園南側,35.6164683333333,139.387096666667,南大沢第八
067-7別所坂公園下歩道橋前広場,35.6146144444444,139.385007777778,南大沢第八
067-8長池小学校北側道路植込,35.6116541666667,139.387955,南大沢第八
080-1旧横山事務所前,35.6512630555556,139.300195,横山第一
080-2並木町ふれあい公園内フェンス,35.6528058333333,139.304104722222,横山第一
080-3バス停「桑志高校」南側信号前緑地,35.6552619444444,139.305987222222,横山第一
080-4都立富士森高校河川沿いフェンス,35.6562677777778,139.302339166667,横山第一
080-5稲荷森神社北西塀,35.65295,139.300551944444,横山第一
080-6長房市民センター西側フェンス,35.65023,139.295340833333,横山第一
080-7旧長房南アパート52号棟東フェンス,35.6548161111111,139.297245277778,横山第一
081-1東雲第二公園西側,35.6528872222222,139.316563611111,横山第二
081-2南多摩病院南側フェンス,35.6551352777778,139.312951944444,横山第二
081-3西八王子駅南口線路沿いフェンス,35.6559141666667,139.311538055556,横山第二
081-4西八王子ハイツＡ棟西側垣根,35.6549122222222,139.314726944444,横山第二
081-5ＮＴＴ八王子駐車場南側フェンス,35.6523511111111,139.308885555556,横山第二
081-6散田給水所北側フェンス,35.6515830555556,139.314607777778,横山第二
081-7東散田公園内,35.6516011111111,139.310113888889,横山第二
082-1めじろ台東公園東側,35.6436463888889,139.315281111111,横山第三
082-2山田橋前廣園禅寺駐車場フェンス,35.6457330555556,139.316677777778,横山第三
082-3山田小学校南門東側フェンス,35.6459827777778,139.313690833333,横山第三
082-4めじろ台東公園西側,35.643995,139.314619722222,横山第三
082-5緑町西公園北側,35.6452738888889,139.319907777778,横山第三
082-6桝形公園北側植込,35.6423052777778,139.316800555556,横山第三
082-7小比企北公園南側,35.6434894444444,139.318513888889,横山第三
083-1第二開戸橋北,35.6589238888889,139.297808888889,横山第四
083-2長房東アパート人形塚公園東側,35.6584675,139.3016875,横山第四
083-3中舟田公園北側フェンス,35.6577830555556,139.297670277778,横山第四
083-4長房児童館南側塀,35.6571447222222,139.298473055556,横山第四
083-5長房東アパート人形塚公園西側,35.6584086111111,139.300915555556,横山第四
083-6開戸橋南,35.6575983333333,139.296156666667,横山第四
084-1めじろ台駅前道路沿い植込,35.6436530555556,139.306923333333,横山第五
084-2めじろ台西公園西側植込,35.6432530555556,139.300032777778,横山第五
084-3めじろ台二丁目公園西側,35.6425983333333,139.310794722222,横山第五
084-4向原公園北側フェンス,35.6398,139.311442222222,横山第五
084-5めじろ台南公園,35.6399872222222,139.306889722222,横山第五
084-6めじろ台中公園内植込,35.6433327777778,139.301239166667,横山第五
084-7めじろ台富士見公園,35.6444913888889,139.309701388889,横山第五
085-1横山中学校南東フェンス,35.6488594444444,139.303995833333,横山第六
085-2散田公園西側,35.6494516666667,139.301897777778,横山第六
085-3散田小学校正門横フェンス,35.6476880555556,139.302457777778,横山第六
085-4椿公園北側フェンス,35.6458088888889,139.300356666667,横山第六
085-5中散田公園南側フェンス,35.6511255555556,139.303500277778,横山第六
085-6横山中学校北側フェンス,35.6492027777778,139.302937777778,横山第六
086-1船田運動広場フェンス,35.6558577777778,139.289284722222,横山第七
086-2長房北アパート汚水処理場北側フェンス,35.6565916666667,139.290905833333,横山第七
086-3長房北アパート７５号棟跡地北側,35.65712,139.293375,横山第七
086-4出羽山公園南側,35.6554019444444,139.2866075,横山第七
086-5出羽山公園東側,35.6555866666667,139.287678055556,横山第七
086-6出羽山公園西側,35.6565991666667,139.285090833333,横山第七
086-7城山手こぶし公園敷地内北側,35.6520772222222,139.286016944444,横山第七
087-1長房アパート西２９号棟南側フェンス,35.6558141666667,139.2949075,横山第八
087-2長房アパート西３号棟北側バス停後方,35.6536266666667,139.291694444444,横山第八
087-3長房アパート西１号棟南側バス停前,35.6527991666667,139.292071111111,横山第八
087-4長房アパート西２８号棟北側駐車場南側フェンス,35.6559369444444,139.293200277778,横山第八
087-5長房南アパート52号棟東側公園北側フェンス,35.6546752777778,139.296754722222,横山第八
087-6長房南アパート船田遺跡公園北側,35.6537244444444,139.294932222222,横山第八
100-1ゆりのき台中央公園,35.627525,139.301213888889,館第一
100-2たてまち幼稚園前市道脇フェンス,35.6277455555556,139.294583055556,館第一
100-3椚田中学校校庭側門フェンス,35.6342208333333,139.309811944444,館第一
100-4館事務所南側フェンス,35.6342233333333,139.306455833333,館第一
100-5ひまわり保育園南側,35.6326080555556,139.299555833333,館第一
100-6八王子医療センターバス折り返し場手前空地,35.6310163888889,139.290124444444,館第一
100-7上館バス停向かい,35.6337438888889,139.287312777778,館第一
100-8横山第一小学校北側フェンス,35.6343797222222,139.304345277778,館第一
101-1寺田工務店横,35.6284625,139.308015555556,館第二
101-2バス停「寺田東」前,35.6253511111111,139.309425555556,館第二
101-3緑が丘小学校正門脇,35.6227533333333,139.309439722222,館第二
101-4バス停「グリーンヒル寺田」北側寺田緑地,35.6217605555556,139.301764166667,館第二
101-5グリーンヒル寺田１２７号棟北側歩道,35.6210513888889,139.303626111111,館第二
101-6榛名橋先フェンス,35.6289005555556,139.310196944444,館第二
101-7バス停「鍛冶谷戸」脇フェンス,35.6224738888889,139.300667222222,館第二
101-8旧稲荷山小学校南側フェンス,35.6199047222222,139.301159444444,館第二
102-1寺田緑地,35.6251077777778,139.311623055556,館第三
102-2みなみ野下大船公園（大船会館入口脇）,35.6257975,139.315520555556,館第三
102-3バス停「下大船」前,35.6285813888889,139.313806944444,館第三
102-4パルスモ（株）前市道脇,35.6172497222222,139.316483333333,館第三
102-5都道５０６号線土手,35.6211958333333,139.314102222222,館第三
102-6大船久保田公園東側フェンス,35.6264202777778,139.312056944444,館第三
102-7大船前田緑地北側道路沿い,35.626405,139.314234722222,館第三
103-1館中学校正門脇,35.6277463888889,139.289899166667,館第四
103-2高尾山学園正門脇,35.6240663888889,139.289474166667,館第四
103-3館ヶ丘団地３－６号棟東側植込,35.6260366666667,139.2871275,館第四
103-4館ヶ丘団地１－８号棟西側,35.6276905555556,139.285083611111,館第四
103-5館ヶ丘団地１－１４号棟東側広場,35.6296602777778,139.287125277778,館第四
103-6高尾山学園北側,35.6248441666667,139.288614444444,館第四
103-7信号「医療センター入口」東側,35.6315941666667,139.286638611111,館第四
104-1八王子市椚田運動場西側,35.6360255555556,139.313505555556,館第五
104-2下椚田公園南側フェンス,35.6387377777778,139.315557222222,館第五
104-3二軒在家公園南側コンクリート壁,35.6389325,139.303301666667,館第五
104-4椚田小学校南側フェンス,35.6364947222222,139.302243611111,館第五
104-5椚田小学校西側フェンス,35.6373047222222,139.300966944444,館第五
104-6東京工業高専グランド南側歩道沿い（西寄り）,35.6385408333333,139.295276111111,館第五
104-7東京工業高専東側フェンス,35.6386125,139.300770277778,館第五
104-8エスフォルタアリーナ東側,35.6393855555556,139.293025833333,館第五
110-1諏訪町公園北東側,35.6777577777778,139.290320277778,元八王子第一
110-2上壱分方町民家ブロック塀,35.6806441666667,139.289255555556,元八王子第一
110-3元八王子市民センター前植込,35.6830566666667,139.286056388889,元八王子第一
110-4諏訪町・森公園南側フェンス,35.6774230555556,139.292443333333,元八王子第一
110-5上壱分方小学校西側フェンス,35.6837869444444,139.283303055556,元八王子第一
110-6特養ホーム諏訪の森道路沿い花壇,35.6754680555556,139.293766944444,元八王子第一
110-7松枝住宅２号棟北側縁地,35.6823694444444,139.293541111111,元八王子第一
110-8こどもキャンプ場東側,35.6831869444444,139.28171,元八王子第一
111-1元八王子事務所東側フェンス,35.6711955555556,139.293331111111,元八王子第二
111-2弐分方公園東側,35.6705933333333,139.290264166667,元八王子第二
111-3石井ハイツ南側フェンス,35.6668502777778,139.290626944444,元八王子第二
111-4ヘアサロンよしもと北側フェンス,35.6732869444444,139.285739166667,元八王子第二
111-5元八王子小学校東側フェンス,35.6687522222222,139.292048333333,元八王子第二
111-6四谷中学校東側フェンス,35.677645,139.296924166667,元八王子第二
111-7柳沢さくら公園南側植込,35.6718672222222,139.285680833333,元八王子第二
111-8消防団第８分団第５部器具置場フェンス,35.6667058333333,139.2884725,元八王子第二
112-1スーパーアルプス横川店駐車場北側フェンス,35.6666358333333,139.303831944444,元八王子第三
112-2横川下原公園北側入口フェンス,35.6676913888889,139.297133333333,元八王子第三
112-3横川公園南側フェンス,35.6647052777778,139.305975277778,元八王子第三
112-4デイサービスセンター東側民家ブロック塀,35.6652411111111,139.297603333333,元八王子第三
112-5横川つつじ公園,35.6636508333333,139.296374444444,元八王子第三
112-6横川西公園フェンス,35.6629625,139.294395,元八王子第三
112-7つつじヶ丘緑地北側,35.6625883333333,139.298870555556,元八王子第三
113-1松子舞西公園フェンス,35.6678425,139.281850833333,元八王子第四
113-2道場根東公園前植込,35.6638988888889,139.277417777778,元八王子第四
113-3梶原谷とちの木公園北側,35.6626472222222,139.274998333333,元八王子第四
113-4元八王子町二丁目ガソリンスタンド北側空地フェンス,35.6582769444444,139.2810575,元八王子第四
113-5道場根中央公園北東隅切り,35.6650094444444,139.276075,元八王子第四
113-6信号「八王子城跡入口」東側民家ブロック塀,35.6571722222222,139.272551666667,元八王子第四
113-7霞が丘公園南側フェンス,35.6521166666667,139.274449722222,元八王子第四
113-8高尾台西公園東側フェンス,35.6524680555556,139.269131111111,元八王子第四
114-1元八王子東小学校北側フェンス,35.6713986111111,139.303563611111,元八王子第五
114-2西蓮寺陣馬街道側万年塀,35.6692069444444,139.300543055556,元八王子第五
114-3元八王子東小学校南側ブロック塀,35.6697427777778,139.304320555556,元八王子第五
114-4八王子泉町住宅３号棟西側フェンス,35.6766616666667,139.2988575,元八王子第五
114-5叶谷公園西側入口脇フェンス,35.6712522222222,139.299851111111,元八王子第五
114-6並木原公園西側植込,35.6771330555556,139.299761944444,元八王子第五
114-7泉町ふれあい公園南側フェンス,35.6748997222222,139.302656111111,元八王子第五
114-8泉町会館前,35.6740366666667,139.302071666667,元八王子第五
115-1横川小学校北側フェンス,35.6675522222222,139.308105555556,元八王子第六
115-2横川小学校西側校門脇フェンス,35.6672294444444,139.306819444444,元八王子第六
115-3横川町住宅１１号棟北側植込,35.6689236111111,139.307274722222,元八王子第六
115-4横川町住宅８号棟東側歩道橋下フェンス,35.667765,139.309689722222,元八王子第六
115-5横川町住宅１号棟東側フェンス,35.6656347222222,139.309274166667,元八王子第六
115-6横川中学校西側フェンス,35.6680880555556,139.304303055556,元八王子第六
115-7横川北ちびっ子広場西側,35.6669191666667,139.304343333333,元八王子第六
116-1川町運動場入口横フェンス,35.6730533333333,139.273729722222,元八王子第七
116-2バス停「タウン入口」向い側空地,35.6678547222222,139.266148055556,元八王子第七
116-3グリーンタウン高尾内汚水処理場北側フェンス,35.6724230555556,139.274456666667,元八王子第七
116-4グリーンタウン高尾バス折返場南側調整池植込,35.6720283333333,139.275810277778,元八王子第七
116-5よしの沢公園南側植込,35.6706877777778,139.270759166667,元八王子第七
116-6バス停「川町落合橋」東側民家ブロック塀,35.6712230555556,139.277493055556,元八王子第七
116-7グリーンタウン高尾内公園南側,35.6708413888889,139.268172222222,元八王子第七
130-1東京都八王子福祉園南側植込,35.6735766666667,139.264683333333,恩方第一
130-2恩方市民センター北側,35.6741275,139.268476388889,恩方第一
130-3恩方第一小学校北側,35.6702438888889,139.254787777778,恩方第一
130-4恩方老人憩いの家駐車場内フェンス,35.6676341666667,139.249029166667,恩方第一
130-5恩方第一小学校西側フェンス,35.6689819444444,139.253491666667,恩方第一
130-6恩方中学校南側フェンス,35.6691772222222,139.242861388889,恩方第一
130-7恩方上宿公園南側フェンス,35.6713033333333,139.254475833333,恩方第一
130-8西東京バス（株）恩方営業所ブロック塀,35.6781238888889,139.256891944444,恩方第一
131-1興慶寺入口,35.6712591666667,139.226937777778,恩方第二
131-2夕やけ小やけふれあいの里第二駐車場前,35.6707997222222,139.214148333333,恩方第二
131-3夕やけ小やけふれあいの里育苗園（温室）前植込,35.6715411111111,139.216521944444,恩方第二
131-4降宿醍醐会館横,35.6786447222222,139.190365555556,恩方第二
131-5恩方第二小学校正門脇,35.6717908333333,139.210391388889,恩方第二
131-6案下会館付近,35.6636327777778,139.191344166667,恩方第二
132-1多摩火薬機工（株）前,35.6768986111111,139.246613333333,恩方第三
132-2小津町会館入口交差点,35.6789494444444,139.235360833333,恩方第三
133-1夕焼け台公園北側フェンス,35.6851675,139.2678975,恩方第四
133-2陵北児童遊園北側フェンス,35.6827988888889,139.270231111111,恩方第四
133-3元木まちの広場向かい,35.6795894444444,139.268160555556,恩方第四
133-4元木小学校西側フェンス,35.6807019444444,139.263493888889,恩方第四
133-5下恩方地区運動場,35.6774569444444,139.26115,恩方第四
133-6飲食店東側梅林,35.6764541666667,139.268948055556,恩方第四
140-1川口中部まちの広場南側フェンス,35.6936352777778,139.279533055556,川口第一
140-2川口小学校東側民家ブロック塀,35.6916177777778,139.281861666667,川口第一
140-3飲食店向かい側民家ブロック塀,35.6886955555556,139.2871525,川口第一
140-4鳥栖公園東側フェンス,35.6943377777778,139.281329444444,川口第一
140-5クリーニング屋前畑,35.6930252777778,139.283338333333,川口第一
140-6川口東部会館門柱東側フェンス,35.6903133333333,139.288672222222,川口第一
140-7天理教川口分教会西畑北側,35.6921641666667,139.289241111111,川口第一
140-8堀口児童遊園,35.6909002777778,139.291578888889,川口第一
141-1楢原桜並木公園北側,35.6864741666667,139.308617777778,川口第二
141-2中犬目まちの広場東側民家フェンス,35.6901361111111,139.305490555556,川口第二
141-3陶鎔小学校北側フェンス,35.6886152777778,139.307717777778,川口第二
141-4中犬目まちの広場西側フェンス,35.6903397222222,139.305231111111,川口第二
141-5堀西公園フェンス,35.6893377777778,139.302500555556,川口第二
141-6バス停「下犬目」畑前,35.6861802777778,139.310221944444,川口第二
142-1圏央道上川橋西側畑,35.6985530555556,139.2694075,川口第三
142-2上川中部児童遊園東側,35.7048355555556,139.2546525,川口第三
142-3上川口小学校正門前道路南側,35.7050311111111,139.249785,川口第三
142-4東京都水道局上川配水所西側斜面,35.71273,139.232081666667,川口第三
142-5上川西部会館向かい側民家ブロック塀,35.7112525,139.236099166667,川口第三
142-6ROAD REST南側桃畑,35.7037316666667,139.254500555556,川口第三
142-7信号「上川橋」東側空地,35.7019113888889,139.259761111111,川口第三
143-1石材店向かい側空地,35.6823238888889,139.259395277778,川口第四
143-2信号「八王子西インター」東側フェンス,35.6806930555556,139.255815,川口第四
143-3バス停「小足」西民家植込,35.693485,139.241889166667,川口第四
143-4信号「美山小学校東」東側民家塀,35.6892858333333,139.250480555556,川口第四
143-5美山小学校校庭南側フェンス,35.6902063888889,139.247924444444,川口第四
143-6バス停「萩園」前フェンス,35.6845263888889,139.254966111111,川口第四
143-7美山工業団地西側駐車場前,35.6971894444444,139.239394166667,川口第四
144-1楢原斎場フェンス,35.6809125,139.30141,川口第五
144-2楢原小学校東側入口手前畑南側,35.6758575,139.309143611111,川口第五
144-3清川１号公園西側,35.6713508333333,139.311656666667,川口第五
144-4清川２号公園西側,35.6715352777778,139.308995833333,川口第五
144-5楢原鹿島公園北側,35.6774061111111,139.309266666667,川口第五
144-6楢原中学校東側植込,35.6777113888889,139.314154444444,川口第五
144-7歯科医院東側フェンス,35.6816055555556,139.302286666667,川口第五
144-8一本松公園南側フェンス,35.6780858333333,139.308669722222,川口第五
145-1川口下川原公園南民家ブロック塀,35.685265,139.295376666667,川口第六
145-2川口やまゆり館南側植込,35.6858216666667,139.298649722222,川口第六
145-3松枝小学校南側フェンス,35.6847702777778,139.300898333333,川口第六
145-4都立八王子北高校東側フェンス,35.6853072222222,139.3040075,川口第六
145-5駒形公園南側フェンス,35.6888102777778,139.29293,川口第六
145-6唐松公園東側フェンス,35.6902258333333,139.300414722222,川口第六
150-1宮下町防災倉庫フェンス,35.7030425,139.315982222222,加住第一
150-2旧加住中学校正門脇フェンス,35.7039369444444,139.31346,加住第一
150-3加住市民センター前植込,35.6995061111111,139.323586666667,加住第一
150-4信号「丹木町二丁目」東,35.6951047222222,139.3296775,加住第一
150-5金子牧場入口畑,35.6929588888889,139.321842777778,加住第一
150-6明王公園北側,35.69461,139.324561666667,加住第一
150-7加住事務所,35.700655,139.316238055556,加住第一
150-8加住小中学校西側フェンス,35.7016363888889,139.3159675,加住第一
151-1道の駅南側フェンス,35.6861744444444,139.341019722222,加住第二
151-2信号「純心学園前」南側駐車場フェンス,35.6915452777778,139.334161666667,加住第二
151-3大雄ビル西側畑,35.6878358333333,139.343136388889,加住第二
151-4尾崎児童遊園北側,35.6801141666667,139.344500555556,加住第二
151-5左入緑地公園南西畑,35.6818219444444,139.3423425,加住第二
152-1創価大学西駐輪場フェンス,35.6878416666667,139.324891666667,加住第三
152-2創価大学正門北駐車場フェンス,35.6882988888889,139.330614166667,加住第三
152-3バス停「谷野町南」東畑,35.6833663888889,139.331511388889,加住第三
152-4谷萩公園北側,35.6869505555556,139.3251625,加住第三
152-5信号「谷野町南」東側植込,35.6811936111111,139.334708333333,加住第三
152-6谷野栃ヶ澤公園西側,35.6830772222222,139.329108888889,加住第三
153-1信号「戸吹町西」東畑,35.7086141666667,139.293874166667,加住第四
153-2戸吹会館東側フェンス,35.7080402777778,139.296282777778,加住第四
153-3大棚橋南側駐車場フェンス,35.7057686111111,139.296772222222,加住第四
153-4戸吹清掃事業所北側植込,35.7016986111111,139.294350555556,加住第四
153-5戸吹廣町西緑地入口右側フェンス,35.7109036111111,139.286860833333,加住第四
154-1高月集会所南側畑,35.7134672222222,139.320955277778,加住第五
154-2高月浄水所正門脇フェンス,35.710255,139.323043888889,加住第五
154-3不動院東側水路フェンス,35.7067188888889,139.325739444444,加住第五
154-4信号「東秋川橋南」東,35.7165744444444,139.318728055556,加住第五
160-1小坂ビル横用水路ガードフェンス,35.6436991666667,139.328432222222,由井第一
160-2小比企下向公園東側,35.6413841666667,139.331153888889,由井第一
160-3農産物直売所西側フェンス,35.6325444444444,139.319324166667,由井第一
160-4聖パウロ病院東側三叉路付近緑地,35.6397677777778,139.317332777778,由井第一
160-5由井第三小学校東側フェンス,35.6428713888889,139.328040555556,由井第一
160-6小比企稲荷前公園北側,35.6432969444444,139.329369444444,由井第一
161-1由井事務所北側フェンス,35.6434405555556,139.333328055556,由井第二
161-2來光寺公園北側,35.6428461111111,139.343331944444,由井第二
161-3ＪＲ片倉駅北口フェンス,35.6398288888889,139.341313888889,由井第二
161-4片倉かまぬき公園西側擁壁植込,35.6361633333333,139.343263888889,由井第二
161-5由井市民センター西側塀,35.6410208333333,139.340015555556,由井第二
161-6由井かたくら学童保育所北側フェンス前,35.6366091666667,139.337296388889,由井第二
161-7片倉つどいの森公園西側,35.6372422222222,139.3298,由井第二
161-8川久保公園東側フェンス,35.6413513888889,139.340707777778,由井第二
162-1みなみ野小学校正門横植込,35.6324505555556,139.323083055556,由井第三
162-2みなみ野駅西口ロータリー植込,35.6308994444444,139.330161111111,由井第三
162-3兵衛下平公園南側,35.6280797222222,139.330278055556,由井第三
162-4みなみ野かしのき公園西側,35.6279619444444,139.320268055556,由井第三
162-5みなみ野毘沙門の丘緑地西側,35.6289347222222,139.327661388889,由井第三
162-6栃谷戸公園東側植込,35.6292286111111,139.318545277778,由井第三
162-7みなみ野君田小学校東側フェンス,35.6273477777778,139.325853611111,由井第三
162-8みなみ野菖蒲谷戸公園北西側,35.6292258333333,139.324685277778,由井第三
162-9みなみ野けやき公園南側,35.6316044444444,139.321267777778,由井第三
163-1片倉まちの広場東側農地,35.6329022222222,139.347257222222,由井第四
163-2片倉台小学校北側植込,35.6317308333333,139.346611388889,由井第四
163-3都立片倉高校北東側ネットフェンス,35.6303644444444,139.341261666667,由井第四
163-4片倉台すずかけ公園,35.6351480555556,139.346441944444,由井第四
163-5片倉台中央公園東側,35.6291880555556,139.347761666667,由井第四
163-6片倉台坂の上公園東側,35.6280341666667,139.345903611111,由井第四
163-7片倉台藤美公園南側,35.6397830555556,139.344836666667,由井第四
164-1七国公園北東,35.6164427777778,139.324595555556,由井第五
164-2七国第四緑地東側植込,35.6201066666667,139.32146,由井第五
164-3宇津貫公園北側植込,35.6253541666667,139.325541944444,由井第五
164-4宇津貫公園南西側植込,35.6239827777778,139.324579166667,由井第五
164-5七国君田公園北西側フェンス,35.6240622222222,139.322665833333,由井第五
164-6七国の丘公園西側角,35.6206066666667,139.324111666667,由井第五
164-7兵衛和田内公園南西側,35.6223936111111,139.332484722222,由井第五
164-8七国シフォンの丘公園,35.6180047222222,139.32485,由井第五
170-1北野公園西側歩道と公園の境,35.6495008333333,139.358364722222,北野第一
170-2由井第一小学校北門西側フェンス,35.6459791666667,139.355893333333,北野第一
170-3北野駅南口ロータリー植込内,35.6448125,139.352710833333,北野第一
170-4北野事務所正門西側フェンス,35.6459658333333,139.353089444444,北野第一
170-5打越中学校南門西側フェンス,35.6445766666667,139.357377777778,北野第一
170-6岸田公園東側,35.6492186111111,139.353772222222,北野第一
170-7信号「新浅川橋南」東側フェンス,35.6529458333333,139.354030555556,北野第一
170-8和田公園北西植込,35.6518691666667,139.349705555556,北野第一
171-1長沼小学校西側道路沿いフェンス,35.6420819444444,139.364484722222,北野第二
171-2ほたる公園南側フェンス,35.6424130555556,139.3710125,北野第二
171-3向河原公園南側,35.6462222222222,139.362393333333,北野第二
171-4春日橋南駐車場フェンス,35.6441613888889,139.361340833333,北野第二
171-5長沼駅北口西側ネットフェンス,35.6428280555556,139.366653333333,北野第二
171-6長沼両田公園西側フェンス,35.6423283333333,139.375721666667,北野第二
171-7長沼山下公園南側,35.6429511111111,139.363813888889,北野第二
171-8下谷戸公園東側フェンス,35.6416641666667,139.372328611111,北野第二
172-1絹ヶ丘緑地北東側フェンス,35.6366916666667,139.357934166667,北野第三
172-2絹ヶ丘給水所フェンス,35.6347141666667,139.363281944444,北野第三
172-3ディスカウントストア南側市道フェンス,35.6416963888889,139.3617675,北野第三
172-4絹ヶ丘３－１空地,35.6355819444444,139.362536111111,北野第三
172-5北野台公園東側フェンス,35.6377761111111,139.36213,北野第三
172-6北野台とりよせ公園バス停東側,35.6353513888889,139.356454444444,北野第三
172-7絹ヶ丘緑地東側ネットフェンス,35.6352305555556,139.359389166667,北野第三
173-1西武北野台中央公園南側バス停脇,35.6279947222222,139.352243333333,北野第四
173-2打越南部公園東側,35.6314475,139.349721111111,北野第四
173-3北野台ながれの公園北側,35.6317655555556,139.355996111111,北野第四
173-4北野台こもれび公園北側,35.626595,139.354092222222,北野第四
173-5打越岡谷公園南側フェンス,35.6323744444444,139.352281944444,北野第四
173-6高嶺小学校南側,35.6276944444444,139.350643888889,北野第四
173-7北野台中央公園北西側,35.6293044444444,139.352009722222,北野第四
173-8北野台ひざかり公園北側,35.6260947222222,139.3521325,北野第四
180-1バス停「北八王子駅入口」前,35.6680111111111,139.358795277778,石川第一
180-2第八小学校正門脇,35.6713872222222,139.361108333333,石川第一
180-3北八王子駅ロータリー外緑地,35.6696875,139.362886388889,石川第一
180-4都立小宮公園大谷弁天池南東,35.6712747222222,139.344060833333,石川第一
180-5東海大学八王子病院入口向かい側フェンス,35.6728705555556,139.357263333333,石川第一
180-6前大谷公園北側,35.6706322222222,139.345890277778,石川第一
180-7大矢化学工業（株）交差点フェンス,35.6752405555556,139.370739722222,石川第一
180-8石川あさくらの公園向かい,35.6735997222222,139.360056388889,石川第一
181-1石川市民センター正面玄関脇花壇,35.6802805555556,139.364645277778,石川第二
181-2石川桑原公園西側フェンス,35.6780855555556,139.368083055556,石川第二
181-3クリエイトＳ・Ｄ八王子小宮町店前都道フェンス,35.6862413888889,139.371225833333,石川第二
181-4小宮会館,35.6877461111111,139.37014,石川第二
181-5小宮駅南口駅前ロータリー,35.6854641666667,139.368306666667,石川第二
181-6八王子水再生センター南側外周フェンス,35.6901597222222,139.368664444444,石川第二
181-7鶴見児童遊園北側,35.682255,139.370623055556,石川第二
181-8八石公園北側,35.6906861111111,139.364648888889,石川第二
182-1宇津木台中公園北側フェンス,35.6887063888889,139.358546111111,石川第三
182-2中村第２まちの広場北東入口フェンス,35.6811005555556,139.349620555556,石川第三
182-3消防団第４分団第６部詰所北側歩道,35.6921363888889,139.357102222222,石川第三
182-4宇津木台緑地南側,35.6899338888889,139.354363888889,石川第三
182-5滝山台丸山公園西側,35.6907547222222,139.3516175,石川第三
182-6宇津木台小学校北側入口フェンス,35.6871786111111,139.353985833333,石川第三
182-7久保山公園東側トイレ前,35.6847180555556,139.356545,石川第三
182-8石川中学校北側フェンス前,35.6839205555556,139.357646111111,石川第三
183-1新田公園北側,35.6665422222222,139.368232222222,石川第四
183-2松風公園西側,35.6636263888889,139.364288333333,石川第四
183-3高倉緑地北東側,35.6697066666667,139.370415,石川第四
183-4都立八王子東高校北西フェンス,35.6625519444444,139.363136666667,石川第四
183-5高倉南公園西側,35.6614269444444,139.362721944444,石川第四
183-6八王子大和田町アパート１号棟北側,35.6651877777778,139.362297777778,石川第四
183-7高倉小学校南側,35.6623369444444,139.366115,石川第四
